{
    "GeoSearchRS": {
        "ApplicationResults": {
            "Success": [{
                "timeStamp": "2018-04-16T11:26:51.453-05:00"
            }]
        },
        "GeoSearchResults": {
            "Radius": 200.0,
            "UOM": "MI",
            "Category": "CAR",
            "Latitude": 50.641949,
            "Longitude": 4.659539,
            "MaxSearchResults": 1867,
            "OffSet": 1,
            "GeoSearchResult": [{
                "Distance": 3.97,
                "Latitude": 50.692227,
                "Longitude": 4.615666,
                "Name": "BRUS30 WAVRE CAR HIRE",
                "Id": "ZIBRUS030",
                "Street": "CH DE NAMUR 241",
                "Zip": "1300",
                "City": "WAVRE",
                "Country": "BE",
                "Attribute": {}
            }, {
                "Distance": 5.41,
                "Latitude": 50.7162,
                "Longitude": 4.6202,
                "Name": "WAVRE",
                "Id": "EPZGVC001",
                "Street": "CHAUSSEE DE LOUVAIN 473",
                "Zip": "1300",
                "City": "WAVRE",
                "Country": "BE",
                "Attribute": {}
            }, {
                "Distance": 7.01,
                "Latitude": 50.731965,
                "Longitude": 4.585635,
                "Name": "BRUS07  WAVRE",
                "Id": "ZLBRUS007",
                "Street": "AVENUE VESALE 4",
                "Zip": "1300",
                "City": "WAVRE",
                "Country": "BE",
                "Attribute": {}
            }, {
                "Distance": 11.54,
                "Latitude": 50.686,
                "Longitude": 4.4053,
                "Name": "BRUS02  WATERLOO",
                "Id": "ZLBRUS002",
                "Street": "CLOS LAMARTINE 9",
                "Zip": "1420",
                "City": "BRAINE L ALLEUD WATERLOO",
                "Country": "BE",
                "Attribute": {}
            }, {
                "Distance": 13.57,
                "Latitude": 50.712,
                "Longitude": 4.37,
                "Name": "BRUS050 BRAINE L ALLEUD",
                "Id": "EPBRUS050",
                "Street": "CLOS LAMARTINE 9",
                "Zip": "1420",
                "City": "WATERLOO",
                "Country": "BE",
                "Attribute": {}
            }, {
                "Distance": 14.53,
                "Latitude": 50.46959,
                "Longitude": 4.46978,
                "Name": "BRUS63  HERTZ CHARLEROI",
                "Id": "ZEBRUS063",
                "Street": "8 RUE DES FRERES WRIGHT BTE 14",
                "Zip": "6041",
                "City": "CHARLEROI",
                "Country": "BE",
                "Attribute": {}
            }, {
                "Distance": 14.53,
                "Latitude": 50.46959,
                "Longitude": 4.46978,
                "Name": "BRUS59 CHARLEROI DOWNTOWN",
                "Id": "ZIBRUS059",
                "Street": "RUE DES FRERES WRIGHT",
                "Zip": "6041",
                "City": "GOSSELIES",
                "Country": "BE",
                "Attribute": {}
            }, {
                "Distance": 14.77,
                "Latitude": 50.468493,
                "Longitude": 4.856163,
                "Name": "BRUS60 NAMUR CAR HIRE",
                "Id": "ZIBRUS060",
                "Street": "31 AV DES COMBATTANTS",
                "Zip": "5000",
                "City": "NAMUR",
                "Country": "BE",
                "Attribute": {}
            }, {
                "Distance": 14.98,
                "Latitude": 50.46834,
                "Longitude": 4.86382,
                "Name": "QNMC01",
                "Id": "ZDQNMC001",
                "Street": "PLACE DE LA STATION 2",
                "Zip": "5000",
                "City": "NAMUR",
                "Country": "BE",
                "Attribute": {}
            }, {
                "Distance": 15.18,
                "Latitude": 50.457508,
                "Longitude": 4.84722,
                "Name": "QNMC01  NAMUR",
                "Id": "ZLQNMC001",
                "Street": "PLACE DE LA STATION",
                "Zip": "5000",
                "City": "NAMUR",
                "Country": "BE",
                "Attribute": {}
            }, {
                "Distance": 15.39,
                "Latitude": 50.4677,
                "Longitude": 4.44112,
                "Name": "CRLT01 CHARLEROI AIRPORT",
                "Id": "SXCRLCRL",
                "Street": "RUE DES FRERES WRITHT 8",
                "Zip": "6041",
                "City": "GOSSELIES",
                "Country": "BE",
                "Attribute": {}
            }, {
                "Distance": 15.39,
                "Latitude": 50.4677,
                "Longitude": 4.44112,
                "Name": "CRLC01 CHARLEROI AIRPORT",
                "Id": "SXCRLC001",
                "Street": "NON PASSENGER",
                "Zip": "6041",
                "City": "GOSSELIES",
                "Country": "BE",
                "Attribute": {}
            }, {
                "Distance": 15.39,
                "Latitude": 50.46769,
                "Longitude": 4.44112,
                "Name": "CRLT01 BRUSSELS SOUTH   CHARLE",
                "Id": "ZICRLCRL",
                "Street": "AIRPORT BRUSSELS SOUTH CRL",
                "Zip": "6041",
                "City": "GOSSELIES",
                "Country": "BE",
                "Attribute": {}
            }, {
                "Distance": 15.39,
                "Latitude": 50.46769,
                "Longitude": 4.44112,
                "Name": "CRLCRL  CHARLEROI AIRPORT",
                "Id": "ZLCRLCRL",
                "Street": "BUILDING S6",
                "Zip": "6041",
                "City": "GOSSELIES",
                "Country": "BE",
                "Attribute": {}
            }, {
                "Distance": 15.39,
                "Latitude": 50.46769,
                "Longitude": 4.44112,
                "Name": "CRLCRL  CHARLEROI AIRPORT",
                "Id": "ALCRLCRL",
                "Street": "BUILDING S6",
                "Zip": "6041",
                "City": "GOSSELIES",
                "Country": "BE",
                "Attribute": {}
            }, {
                "Distance": 15.44,
                "Latitude": 50.4625,
                "Longitude": 4.8691,
                "Name": "QNMC63  HERTZ NAMUR",
                "Id": "ZEQNMC063",
                "Street": "AVE FERNAND GOLENVAUX 23",
                "Zip": "5000",
                "City": "NAMUR",
                "Country": "BE",
                "Attribute": {}
            }, {
                "Distance": 15.59,
                "Latitude": 50.458,
                "Longitude": 4.454,
                "Name": "CHARLEROI AIRPORT",
                "Id": "EPCRLCRL",
                "Street": "ARRIVAL HALL",
                "Zip": "6041",
                "City": "GOSSELIES",
                "Country": "BE",
                "Attribute": {}
            }, {
                "Distance": 16.7,
                "Latitude": 50.444187,
                "Longitude": 4.44076,
                "Name": "HERTZ CHARLEROI",
                "Id": "ZECRLCRL",
                "Street": "CHARLEROI GOSSELIES AIRPORT",
                "Zip": "6040",
                "City": "CHARLEROI",
                "Country": "BE",
                "Attribute": {}
            }, {
                "Distance": 17.34,
                "Latitude": 50.86974,
                "Longitude": 4.49316,
                "Name": "BRUC020 RIJSCHOLEN",
                "Id": "EPBRUC020",
                "Street": "WEIVELDLAAN 8",
                "Zip": "1930",
                "City": "ZAVENTEM",
                "Country": "BE",
                "Attribute": {}
            }, {
                "Distance": 17.52,
                "Latitude": 50.87531,
                "Longitude": 4.50272,
                "Name": "BRUN001 ZAVENTEM",
                "Id": "EPBRUN001",
                "Street": "HERMESSTRAAT 3",
                "Zip": "1930",
                "City": "ZAVENTEM",
                "Country": "BE",
                "Attribute": {}
            }, {
                "Distance": 17.52,
                "Latitude": 50.87531,
                "Longitude": 4.50272,
                "Name": "BRUC02  ZAVENTEM DOWNTOWN",
                "Id": "ZLBRUC002",
                "Street": "HERMESSTRAAT 3",
                "Zip": "1930",
                "City": "ZAVENTEM",
                "Country": "BE",
                "Attribute": {}
            }, {
                "Distance": 17.61,
                "Latitude": 50.41505,
                "Longitude": 4.4767,
                "Name": "BRUS08  CHARLEROI",
                "Id": "ZLBRUS008",
                "Street": "RUE DE MONTIGNY 246",
                "Zip": "6060",
                "City": "CHARLEROI",
                "Country": "BE",
                "Attribute": {}
            }, {
                "Distance": 17.76,
                "Latitude": 50.43946,
                "Longitude": 4.90851,
                "Name": "QNMC001 NAMUR",
                "Id": "EPQNMC001",
                "Street": "CHAUSSEE DE MARCHE 601",
                "Zip": "5101",
                "City": "NAMUR",
                "Country": "BE",
                "Attribute": {}
            }, {
                "Distance": 17.92,
                "Latitude": 50.8195,
                "Longitude": 4.36092,
                "Name": "BRUC008 BRUSSELS CENTER IKC",
                "Id": "EPBRUC008",
                "Street": "CHAUSSEE DE WATERLOO 538",
                "Zip": "1050",
                "City": "BRUSSELS",
                "Country": "BE",
                "Attribute": {}
            }, {
                "Distance": 17.92,
                "Latitude": 50.819488,
                "Longitude": 4.360901,
                "Name": "BRUS05  BRUSSELS CTR IXELLES",
                "Id": "ZLBRUS005",
                "Street": "CHAUSSEE DE WATERLOO 538",
                "Zip": "1050",
                "City": "BRUSSELS",
                "Country": "BE",
                "Attribute": {}
            }, {
                "Distance": 18.04,
                "Latitude": 50.822532,
                "Longitude": 4.361572,
                "Name": "BRUC01 BRUSSELS CENTRE   IXELL",
                "Id": "ZIBRUC001",
                "Street": "RUE AMERICAINE 145",
                "Zip": "1050",
                "City": "BRUSSELS  IXELLES",
                "Country": "BE",
                "Attribute": {}
            }, {
                "Distance": 18.47,
                "Latitude": 50.79095,
                "Longitude": 4.30906,
                "Name": "DG1 BRUSSELS SOUTH   DROGENBOS",
                "Id": "ZIBRUS029",
                "Street": "GROTE BAAN 393",
                "Zip": "1620",
                "City": "DROGENBOS",
                "Country": "BE",
                "Attribute": {}
            }, {
                "Distance": 18.48,
                "Latitude": 50.885723,
                "Longitude": 4.485788,
                "Name": "BRUT01 BRUSSELS NATIONAL AIRPO",
                "Id": "ZIBRUBRU",
                "Street": "BRUSSELS AIRPORT",
                "Zip": "1930",
                "City": "ZAVENTEM",
                "Country": "BE",
                "Attribute": {}
            }, {
                "Distance": 18.48,
                "Latitude": 50.885723,
                "Longitude": 4.485788,
                "Name": "BRUBRU  BRUSSELS AIRPORT",
                "Id": "ZLBRUBRU",
                "Street": "BRUSSELS NATIONAL AIRPORT ARRIVALS HALL",
                "Zip": "1930",
                "City": "ZAVENTEM",
                "Country": "BE",
                "Attribute": {}
            }, {
                "Distance": 18.48,
                "Latitude": 50.885723,
                "Longitude": 4.485788,
                "Name": "BRUBRU  BRUSSELS AIRPORT",
                "Id": "ALBRUBRU",
                "Street": "BRUSSELS NATIONAL AIRPORT ARRIVALS HALL",
                "Zip": "1930",
                "City": "ZAVENTEM",
                "Country": "BE",
                "Attribute": {}
            }, {
                "Distance": 18.56,
                "Latitude": 50.831654,
                "Longitude": 4.359032,
                "Name": "BRUC01 HOTEL BRISTOL",
                "Id": "ZDBRUC001",
                "Street": "AVENUE LOUISE 91",
                "Zip": "1050",
                "City": "BRUSSELS",
                "Country": "BE",
                "Attribute": {}
            }, {
                "Distance": 18.64,
                "Latitude": 50.885478,
                "Longitude": 4.476149,
                "Name": "BRUE05 ZAVENTEM CENTRE",
                "Id": "ZIBRUE005",
                "Street": "LANDBOUWSTRAAT 56",
                "Zip": "1930",
                "City": "ZAVENTEM",
                "Country": "BE",
                "Attribute": {}
            }, {
                "Distance": 18.75,
                "Latitude": 50.4049,
                "Longitude": 4.4518,
                "Name": "CHARLEROI",
                "Id": "EPBRUS051",
                "Street": "RUE DE MONTIGNY 246",
                "Zip": "6000",
                "City": "CHARLEROI",
                "Country": "BE",
                "Attribute": {}
            }, {
                "Distance": 18.78,
                "Latitude": 50.8809,
                "Longitude": 4.4547,
                "Name": "BRUC64  HERTZ BRUSSELS",
                "Id": "ZEBRUC064",
                "Street": "EXCELSIORLAAN 20",
                "Zip": "1930",
                "City": "BRUSSELS",
                "Country": "BE",
                "Attribute": {}
            }, {
                "Distance": 18.88,
                "Latitude": 50.83701,
                "Longitude": 4.35731,
                "Name": "BRUC01 BRUSSELS HILTON HOTEL",
                "Id": "SXBRUC001",
                "Street": "BLV WATERLOO 38",
                "Zip": "1000",
                "City": "BRUSSELS",
                "Country": "BE",
                "Attribute": {}
            }, {
                "Distance": 19.06,
                "Latitude": 50.83099,
                "Longitude": 4.342059,
                "Name": "WT3 GARE DU MIDI   RAILWAY ST",
                "Id": "ZIBRUX021",
                "Street": "RAILWAY STN GARE DU MIDI",
                "Zip": "1060",
                "City": "BRUSSELS  RAILWAY",
                "Country": "BE",
                "Attribute": {}
            }, {
                "Distance": 19.06,
                "Latitude": 50.83099,
                "Longitude": 4.342059,
                "Name": "BRUX001 BRUSSELS MIDI RRS",
                "Id": "EPBRUX001",
                "Street": "AV FONSY 46 BUS 27",
                "Zip": "1060",
                "City": "BRUSSELS",
                "Country": "BE",
                "Attribute": {}
            }, {
                "Distance": 19.16,
                "Latitude": 50.895,
                "Longitude": 4.48,
                "Name": "BRUSSELS AIRPORT",
                "Id": "EPBRUBRU",
                "Street": "NATIONAL AIRPORT",
                "Zip": "1930",
                "City": "ZAVENTEM",
                "Country": "BE",
                "Attribute": {}
            }, {
                "Distance": 19.19,
                "Latitude": 50.81844,
                "Longitude": 4.32075,
                "Name": "BRUC001 BRUSSELS SOUTH",
                "Id": "EPBRUC001",
                "Street": "RUE SAINT DENIS 281",
                "Zip": "1190",
                "City": "BRUSSELS",
                "Country": "BE",
                "Attribute": {}
            }, {
                "Distance": 19.19,
                "Latitude": 50.81844,
                "Longitude": 4.32075,
                "Name": "BRUS04  BRUSSELS CTR FOREST",
                "Id": "ZLBRUS004",
                "Street": "RUE SAINT DENIS 281",
                "Zip": "1190",
                "City": "BRUSSELS",
                "Country": "BE",
                "Attribute": {}
            }, {
                "Distance": 19.27,
                "Latitude": 50.90138,
                "Longitude": 4.49749,
                "Name": "BRUT01 BRUXELLES AIRPORT",
                "Id": "SXBRUBRU",
                "Street": "BRUXELLES",
                "Zip": "1930",
                "City": "ZAVENTEM",
                "Country": "BE",
                "Attribute": {}
            }, {
                "Distance": 19.32,
                "Latitude": 50.8331,
                "Longitude": 4.337,
                "Name": "BRUX90  GARE DU MIDI",
                "Id": "ZEBRUX090",
                "Street": "TGV EUROSTAR THALYS",
                "Zip": "1060",
                "City": "BRUSSELS",
                "Country": "BE",
                "Attribute": {}
            }, {
                "Distance": 19.33,
                "Latitude": 50.845718,
                "Longitude": 4.356518,
                "Name": "BRUSSELS HILTON GRAND PLACE",
                "Id": "SXBRUC003",
                "Street": "CARREFOUR DE LEUROPE 3",
                "Zip": "1000",
                "City": "BRUSSELS",
                "Country": "BE",
                "Attribute": {}
            }, {
                "Distance": 19.37,
                "Latitude": 50.9014,
                "Longitude": 4.49177,
                "Name": "BRUSSELS AIRPORT",
                "Id": "ZEBRUBRU",
                "Street": "BRUSSELS AIRPORT",
                "Zip": "1930",
                "City": "BRUSSELS",
                "Country": "BE",
                "Attribute": {}
            }, {
                "Distance": 19.4,
                "Latitude": 50.83,
                "Longitude": 4.33,
                "Name": "BRUC60  BRUSSELS",
                "Id": "ZEBRUC060",
                "Street": "PLACE VICTOR HORTA 1",
                "Zip": "1060",
                "City": "BRUSSELS",
                "Country": "BE",
                "Attribute": {}
            }, {
                "Distance": 19.41,
                "Latitude": 50.83532,
                "Longitude": 4.3376,
                "Name": "ZYRX01  BRUSSELS MIDI RRS",
                "Id": "ZLZYRX001",
                "Street": "AVENUE FONSNY 46 BOITE NO 27",
                "Zip": "1060",
                "City": "BRUSSELS",
                "Country": "BE",
                "Attribute": {}
            }, {
                "Distance": 19.67,
                "Latitude": 50.8483,
                "Longitude": 4.3496,
                "Name": "A1 EXOTIC CAR EXPRESS",
                "Id": "EEBRUBRU",
                "Street": "XX",
                "City": "BRUSSELS",
                "Country": "BE",
                "Attribute": {}
            }, {
                "Distance": 19.68,
                "Latitude": 50.925873,
                "Longitude": 4.695293,
                "Name": "BRUC08 LEUVEN CAR HIRE",
                "Id": "ZIBRUC008",
                "Street": "NIEUWSTRAAT 28",
                "Zip": "3018",
                "City": "KORBEEK LO LEUVEN",
                "Country": "BE",
                "Attribute": {}
            }, {
                "Distance": 19.74,
                "Latitude": 50.893353,
                "Longitude": 4.445058,
                "Name": "BRUSSELS AIRPORT",
                "Id": "ZDBRUBRU",
                "Street": "NOVOTEL HOTEL",
                "Zip": "1831",
                "City": "BRUSSELS",
                "Country": "BE",
                "Attribute": {}
            }, {
                "Distance": 20.65,
                "Latitude": 50.829586,
                "Longitude": 4.291889,
                "Name": "BRUSSELS GARE DU MIDI",
                "Id": "SXBRUX001",
                "Street": "AV FONSNY 47 B ENTRY HORTA SQ",
                "Zip": "1070",
                "City": "BRUXELLES",
                "Country": "BE",
                "Attribute": {}
            },{
                "Distance": 0.0,
                "Latitude": 42.760147,
                "Longitude": 25.241814,
                "Name": "VARE20 SUNNY BEACH",
                "Id": "SXVARE020",
                "Street": "SUNNY BEACH HOTEL GLOBUS",
                "City": "SUNNY BEACH",
                "State": "VAR",
                "Country": "BG",
                "Attribute": {}
            }, {
                "Distance": 0.0,
                "Latitude": 42.760147,
                "Longitude": 25.241814,
                "Name": "BOJN01 SUNNY BEACH",
                "Id": "ZDBOJN001",
                "Street": "COMPLEX JOY",
                "City": "SUNNY BEACH",
                "Country": "BG",
                "Attribute": {}
            }, {
                "Distance": 0.0,
                "Latitude": 42.760147,
                "Longitude": 25.241814,
                "Name": "BOJC01 SUNNY BEACH HOTEL OASIS",
                "Id": "ZIBOJC001",
                "Street": "HOTEL OASIS",
                "City": "SUNNY BEACH",
                "Country": "BG",
                "Attribute": {}
            }, {
                "Distance": 0.0,
                "Latitude": 42.7601,
                "Longitude": 25.2418,
                "Name": "BOJN60  HERTZ SUNNY BEACH",
                "Id": "ZEBOJN060",
                "Street": "IBEROSTAR SUNNY BEACH HOTEL",
                "Zip": "8240",
                "City": "SUNNY BEACH",
                "Country": "BG",
                "Attribute": {}
            }, {
                "Distance": 0.0,
                "Latitude": 42.7601,
                "Longitude": 25.2418,
                "Name": "XG2 SUNNYBEACH",
                "Id": "ZIVARC001",
                "Street": "BOURGAS",
                "City": "BOURGAD",
                "Country": "BG",
                "Attribute": {}
            }, {
                "Distance": 0.0,
                "Latitude": 42.7601,
                "Longitude": 25.2418,
                "Name": "BOJR003 BRIZ COMPLEX",
                "Id": "EPBOJR003",
                "Street": "RECEPTION",
                "City": "SVETI VLAS VILLAGE",
                "Country": "BG",
                "Attribute": {}
            }, {
                "Distance": 49.05,
                "Latitude": 42.15,
                "Longitude": 24.75,
                "Name": "JL5 PLOVDIV NOVOTEL",
                "Id": "ZIPDVC001",
                "Street": "2 ZLATYU BOYADJIEV STR",
                "Zip": "1000",
                "City": "4000 PLOVDIV",
                "Country": "BG",
                "Attribute": {}
            }, {
                "Distance": 49.05,
                "Latitude": 42.15,
                "Longitude": 24.75,
                "Name": "PLOVDIV DOWNTOWN",
                "Id": "EPPDVC001",
                "Street": "14 VASSIL LEVSKI ST",
                "Zip": "4000",
                "City": "PLOVDIV",
                "Country": "BG",
                "Attribute": {}
            }, {
                "Distance": 51.83,
                "Latitude": 42.067778,
                "Longitude": 24.850833,
                "Name": "PLOVDIV AIRPORT",
                "Id": "SXPDVPDV",
                "Street": "ARRIVAL HALL",
                "Zip": "4009",
                "City": "PLOVDIV",
                "Country": "BG",
                "Attribute": {}
            }, {
                "Distance": 54.96,
                "Latitude": 42.6758,
                "Longitude": 26.3183,
                "Name": "BOJW01 SLIVEN BG",
                "Id": "ZDBOJW001",
                "Street": "HADJI DIMITAR ST 17",
                "City": "SLIVEN",
                "Country": "BG",
                "Attribute": {}
            }, {
                "Distance": 93.23,
                "Latitude": 42.689514,
                "Longitude": 23.407549,
                "Name": "SOFIA INT AIRPORT TERMINAL 1",
                "Id": "EPSOFSOF",
                "Street": "INTERNATIONAL AIRPORT ARRIVAL HALL",
                "Zip": "1540",
                "City": "SOFIA",
                "Country": "BG",
                "Attribute": {}
            }, {
                "Distance": 93.27,
                "Latitude": 42.695194,
                "Longitude": 23.406166,
                "Name": "SOF  SOFIA AIRPORT BULGARIA",
                "Id": "ZRSOFSOF",
                "Street": "HRISTOFOR KOLUMB BLVD 1",
                "Zip": "1540",
                "City": "SOFIA",
                "Country": "BG",
                "Attribute": {}
            }, {
                "Distance": 93.27,
                "Latitude": 42.695194,
                "Longitude": 23.406166,
                "Name": "SOF  SOFIA AIRPORT BULGARIA",
                "Id": "ZTSOFSOF",
                "Street": "HRISTOFOR KOLUMB BLVD 1",
                "Zip": "1540",
                "City": "SOFIA",
                "Country": "BG",
                "Attribute": {}
            }, {
                "Distance": 95.95,
                "Latitude": 42.673588,
                "Longitude": 23.355261,
                "Name": "SOFC001 SOFIA DT TSARIGRAGSKO",
                "Id": "EPSOFC001",
                "Street": "101 TSARIGRADSKO SHOSSE BUL",
                "Zip": "1113",
                "City": "SOFIA",
                "Country": "BG",
                "Attribute": {}
            }, {
                "Distance": 96.07,
                "Latitude": 42.71,
                "Longitude": 23.35,
                "Name": "SOFC60  HERTZ SOFIA",
                "Id": "ZESOFC060",
                "Street": "BUSINESS PARK SOFIA",
                "Zip": "1715",
                "City": "SOFIA",
                "Country": "BG",
                "Attribute": {}
            }, {
                "Distance": 96.58,
                "Latitude": 42.71,
                "Longitude": 23.34,
                "Name": "SOFC61  HERTZ SOFIA",
                "Id": "ZESOFC061",
                "Street": "53 NIKOLA VAPTSAROV BLVD",
                "Zip": "1407",
                "City": "SOFIA",
                "Country": "BG",
                "Attribute": {}
            }, {
                "Distance": 97.4,
                "Latitude": 42.6971,
                "Longitude": 23.3246,
                "Name": "SOFC04 SOFIA HOLIDAY INN HOTEL",
                "Id": "SXSOFC004",
                "Street": "ALEXANDAR MALINOV BLVD 111",
                "City": "SOFIA",
                "Country": "BG",
                "Attribute": {}
            }, {
                "Distance": 97.4,
                "Latitude": 42.6971,
                "Longitude": 23.3246,
                "Name": "SOFC05 SOFIA RADISSON HOTEL",
                "Id": "SXSOFC005",
                "Street": "NARODNO SABRANIE SQ 4",
                "City": "SOFIA",
                "Country": "BG",
                "Attribute": {}
            }, {
                "Distance": 97.4,
                "Latitude": 42.697079,
                "Longitude": 23.324551,
                "Name": "SOFC02 SOFIA  84 ORION STREET",
                "Id": "ZISOFC002",
                "Street": "84 ORION STREET",
                "City": "SOFIA",
                "Country": "BG",
                "Attribute": {}
            }, {
                "Distance": 97.4,
                "Latitude": 42.697079,
                "Longitude": 23.324551,
                "Name": "SOFSOF  SOFIA INTL AIRPORT",
                "Id": "ZLSOFSOF",
                "Street": "SOFIA INTERNATIONAL AIRPORT",
                "City": "SOFIA",
                "Country": "BG",
                "Attribute": {}
            }, {
                "Distance": 97.4,
                "Latitude": 42.697079,
                "Longitude": 23.324551,
                "Name": "SOFC01 SOFIA",
                "Id": "ZISOFC001",
                "Street": "2 ARSENALSKI BLVD",
                "City": "SOFIA",
                "Country": "BG",
                "Attribute": {}
            }, {
                "Distance": 97.4,
                "Latitude": 42.697079,
                "Longitude": 23.324551,
                "Name": "SOFT01 SOFIA INTERNATIONAL AIR",
                "Id": "ZISOFSOF",
                "Street": "INTERNATIONAL AIRPORT",
                "City": "SOFIA",
                "Country": "BG",
                "Attribute": {}
            }, {
                "Distance": 97.4,
                "Latitude": 42.697079,
                "Longitude": 23.324551,
                "Name": "HERTZ SOFIA",
                "Id": "ZESOFSOF",
                "Street": "SOFIA AIRPORT",
                "City": "SOFIA",
                "Country": "BG",
                "Attribute": {}
            }, {
                "Distance": 97.4,
                "Latitude": 42.697079,
                "Longitude": 23.324551,
                "Name": "SOFSOF ADVANTAGE SOFIA",
                "Id": "ADSOFSOF",
                "Street": "5 DONDUKOV BLVD",
                "City": "SOFIA",
                "Country": "BG",
                "Attribute": {}
            }, {
                "Distance": 97.4,
                "Latitude": 42.697079,
                "Longitude": 23.324551,
                "Name": "SOFC006 SOFIA SUBARU SHOWROOM",
                "Id": "EPSOFC006",
                "Street": "SUBARU SHOWROOM",
                "City": "SOFIA",
                "Country": "BG",
                "Attribute": {}
            }, {
                "Distance": 97.4,
                "Latitude": 42.697079,
                "Longitude": 23.324551,
                "Name": "SOFC008 SOFIA DT STAMBOLIJSKI",
                "Id": "EPSOFC008",
                "Street": "20B AL STAMBOLIJSKI BUL",
                "City": "SOFIA",
                "Country": "BG",
                "Attribute": {}
            }, {
                "Distance": 97.4,
                "Latitude": 42.697079,
                "Longitude": 23.324551,
                "Name": "SOFSOF  SOFIA INTL AIRPORT",
                "Id": "ALSOFSOF",
                "Street": "SOFIA INTERNATIONAL AIRPORT",
                "City": "SOFIA",
                "Country": "BG",
                "Attribute": {}
            }, {
                "Distance": 97.4,
                "Latitude": 42.697079,
                "Longitude": 23.324551,
                "Name": "SOFC06",
                "Id": "ZDSOFC006",
                "Street": "43 HRISTOFOR KOLUMB BLVD",
                "City": "SOFIA",
                "Country": "BG",
                "Attribute": {}
            }, {
                "Distance": 97.4,
                "Latitude": 42.697079,
                "Longitude": 23.324551,
                "Name": "SOFC02 SOFIA KEMPINSKI HOTEL",
                "Id": "SXSOFC002",
                "Street": "100 JAMES BOURCHIER BOULEVARD",
                "City": "SOFIA",
                "State": "SOF",
                "Country": "BG",
                "Attribute": {}
            }, {
                "Distance": 97.4,
                "Latitude": 42.697079,
                "Longitude": 23.324551,
                "Name": "SOFW050 SOFIA INTER APT TERM 2",
                "Id": "EPSOFW050",
                "Street": "SOFIA INTER AIRPORT TERM2",
                "City": "SOFIA",
                "Country": "BG",
                "Attribute": {}
            }, {
                "Distance": 97.4,
                "Latitude": 42.697079,
                "Longitude": 23.324551,
                "Name": "SOFT01 SOFIA AIRPORT",
                "Id": "SXSOFSOF",
                "Street": "SOFIA INTERNATIONAL AIRPORT",
                "City": "SOFIA",
                "State": "SOF",
                "Country": "BG",
                "Attribute": {}
            }, {
                "Distance": 97.4,
                "Latitude": 42.697079,
                "Longitude": 23.324551,
                "Name": "PAYLESS CAR RENTAL IN TERMINAL",
                "Id": "ZASOFSOF",
                "Street": "AFFILIATE TOP RENT A CAR BULGARIA",
                "City": "SOFIA",
                "Country": "BG",
                "Attribute": {}
            }, {
                "Distance": 97.4,
                "Latitude": 42.69708,
                "Longitude": 23.32455,
                "Name": "SOFE51    SO1 SOFIA DOWNTOWN",
                "Id": "ZTSOFE051",
                "Street": "4 KOZLODUY STR",
                "Zip": "1202",
                "City": "SOFIA",
                "Country": "BG",
                "Attribute": {}
            }, {
                "Distance": 97.4,
                "Latitude": 42.69708,
                "Longitude": 23.32455,
                "Name": "SOFE01   SOFIA DOWNTOWN",
                "Id": "ZRSOFE001",
                "Street": "4 KOZLODUY STR",
                "Zip": "1202",
                "City": "SOFIA",
                "Country": "BG",
                "Attribute": {}
            }, {
                "Distance": 97.54,
                "Latitude": 42.697506,
                "Longitude": 23.321856,
                "Name": "SOFIA HOTEL BALKAN",
                "Id": "SXSOFC003",
                "Street": "SVETA NEDELYA SQUARE 5",
                "Zip": "1000",
                "City": "SOFIA",
                "Country": "BG",
                "Attribute": {}
            }, {
                "Distance": 97.58,
                "Latitude": 42.666804,
                "Longitude": 23.323858,
                "Name": "SOFIA EAST PARK TRADE CENTER",
                "Id": "SXSOFC001",
                "Street": "53 NIKOLA VAPTSAROV BLVD",
                "City": "SOFIA",
                "Country": "BG",
                "Attribute": {}
            }, {
                "Distance": 97.87,
                "Latitude": 42.6833,
                "Longitude": 23.3166,
                "Name": "SOFC002  BALRAN TOURIST RENT",
                "Id": "ZDSOFC002",
                "Street": "TEMPORARILY CLOSED LOCATION",
                "Zip": "1040",
                "City": "SOFIA",
                "Country": "BG",
                "Attribute": {}
            }, {
                "Distance": 98.07,
                "Latitude": 42.676998,
                "Longitude": 23.3132,
                "Name": "SOFIA INTL AIRPORT",
                "Id": "ZDSOFSOF",
                "Street": "TERMINAL 2",
                "Zip": "1000",
                "City": "SOFIA",
                "Country": "BG",
                "Attribute": {}
            }, {
                "Distance": 98.07,
                "Latitude": 42.676998,
                "Longitude": 23.3132,
                "Name": "SOFC05 SOFIA AIRPORT",
                "Id": "ZDSOFC005",
                "Street": "ARRIVALS HALL",
                "Zip": "6801",
                "City": "SOFIA",
                "Country": "BG",
                "Attribute": {}
            }, {
                "Distance": 114.51,
                "Latitude": 42.5,
                "Longitude": 27.4666,
                "Name": "BOJBOJ  BOURGAS AIRPORT",
                "Id": "ZLBOJBOJ",
                "Street": "SARAFOVO BURGAS AIRPORT",
                "City": "BOURGAS",
                "Country": "BG",
                "Attribute": {}
            }, {
                "Distance": 114.51,
                "Latitude": 42.5,
                "Longitude": 27.4666,
                "Name": "BOURGAS AIRPORT",
                "Id": "ZDBOJBOJ",
                "Street": "ARRIVALS HALL",
                "City": "BOURGAS",
                "Country": "BG",
                "Attribute": {}
            }, {
                "Distance": 114.51,
                "Latitude": 42.5,
                "Longitude": 27.4666,
                "Name": "BOJC001 BOURGAS DOWNTOWN",
                "Id": "EPBOJC001",
                "Street": "42 BOGORIDI STREET",
                "City": "BOURGAS",
                "Country": "BG",
                "Attribute": {}
            }, {
                "Distance": 114.51,
                "Latitude": 42.5,
                "Longitude": 27.4666,
                "Name": "HERTZ BOURGAS",
                "Id": "ZEBOJBOJ",
                "Street": "BOURGAS AIRPORT",
                "City": "BOURGAS",
                "Country": "BG",
                "Attribute": {}
            }, {
                "Distance": 114.51,
                "Latitude": 42.5,
                "Longitude": 27.4666,
                "Name": "BOJBOJ  BOURGAS AIRPORT",
                "Id": "ALBOJBOJ",
                "Street": "SARAFOVO BURGAS AIRPORT",
                "City": "BOURGAS",
                "Country": "BG",
                "Attribute": {}
            }, {
                "Distance": 114.51,
                "Latitude": 42.5,
                "Longitude": 27.4666,
                "Name": "BOJT01 BOURGAS AIRPORT",
                "Id": "ZIBOJBOJ",
                "Street": "BOURGAS AIRPORT",
                "City": "BOURGAS",
                "Country": "BG",
                "Attribute": {}
            }, {
                "Distance": 114.51,
                "Latitude": 42.5,
                "Longitude": 27.4666,
                "Name": "BOJBOJ BOURGAS BULGARIA",
                "Id": "ADBOJBOJ",
                "Street": "86 STEFAN STAMBOLOV BLVD",
                "City": "BOURGAS",
                "Country": "BG",
                "Attribute": {}
            }, {
                "Distance": 114.51,
                "Latitude": 42.5,
                "Longitude": 27.4666,
                "Name": "BOURGAS INTERNATIONAL AIRPORT",
                "Id": "EPBOJBOJ",
                "Street": "ARRIVALS HALL",
                "City": "BOURGAS",
                "Country": "BG",
                "Attribute": {}
            }, {
                "Distance": 115.02,
                "Latitude": 42.491341,
                "Longitude": 27.474569,
                "Name": "BOJC02 BOURGAS APT",
                "Id": "ZDBOJC002",
                "Street": "ALEKSANDROVSKA ST 137",
                "City": "BURGAS",
                "Country": "BG",
                "Attribute": {}
            }, {
                "Distance": 116.25,
                "Latitude": 42.569584,
                "Longitude": 27.515236,
                "Name": "BOJ    BOURGAS AIRPORT",
                "Id": "ZTBOJBOJ",
                "Street": "BOURGAS INTERNATIONAL AIRPORT",
                "Zip": "8000",
                "City": "BOURGAS",
                "Country": "BG",
                "Attribute": {}
            }, {
                "Distance": 116.25,
                "Latitude": 42.569584,
                "Longitude": 27.515236,
                "Name": "BOJ     BOURGAS AIRPORT",
                "Id": "ZRBOJBOJ",
                "Street": "BOURGAS INTERNATIONAL AIRPORT",
                "Zip": "8000",
                "City": "BOURGAS",
                "Country": "BG",
                "Attribute": {}
            },{
                "Distance": 0.0,
                "Latitude": 49.73859,
                "Longitude": 15.335233,
                "Name": "PRGT01 PRAGUE RUZYNE AIRPORT",
                "Id": "ZIPRGPRG",
                "Street": "AIRPORT RUZYNE",
                "City": "160 08 PRAGUE6 APT",
                "Country": "CZ",
                "Attribute": {}
            }, {
                "Distance": 0.0,
                "Latitude": 49.73859,
                "Longitude": 15.335233,
                "Name": "QNDR001 NOVI SAD",
                "Id": "EPQNDR001",
                "Street": "HOTEL NOVI SAD",
                "City": "NOVI SAD",
                "Country": "CZ",
                "Attribute": {}
            }, {
                "Distance": 0.0,
                "Latitude": 49.73859,
                "Longitude": 15.335233,
                "Name": "OSRT01 OSTRAVA MOANOV AIRPORT",
                "Id": "ZIOSROSR",
                "Street": "AIRPORT MOANOV",
                "City": "OSTRAVA AIRPORT",
                "Country": "CZ",
                "Attribute": {}
            }, {
                "Distance": 0.0,
                "Latitude": 49.73859,
                "Longitude": 15.335233,
                "Name": "BRQT01 BRNO TURANY AIRPORT",
                "Id": "ZIBRQBRQ",
                "Street": "AIRPORT TURANY",
                "City": "627 00 BRNO APT",
                "Country": "CZ",
                "Attribute": {}
            }, {
                "Distance": 29.4,
                "Latitude": 50.006641,
                "Longitude": 15.848021,
                "Name": "PEDR001 PARDUBICE HOTEL EURO",
                "Id": "EPPEDR001",
                "Street": "HOTEL EURO",
                "Zip": "53002",
                "City": "PARDUBICE",
                "Country": "CZ",
                "Attribute": {}
            }, {
                "Distance": 39.76,
                "Latitude": 50.2166,
                "Longitude": 15.8333,
                "Name": "HRADEC KRALOVE",
                "Id": "EPPRGE002",
                "Street": "REKREA",
                "Zip": "50002",
                "City": "HRADEC KRALOVE",
                "Country": "CZ",
                "Attribute": {}
            }, {
                "Distance": 45.4,
                "Latitude": 50.0833,
                "Longitude": 14.4666,
                "Name": "ADVANTAGE PRAGUE DOWNTOWN",
                "Id": "ADPRGC878",
                "Street": "25 REVOLUCNI",
                "City": "PRAHA",
                "Country": "CZ",
                "Attribute": {}
            }, {
                "Distance": 45.4,
                "Latitude": 50.0833,
                "Longitude": 14.4666,
                "Name": "ADVANTAGE PRAGUE",
                "Id": "ADPRGPRG",
                "Street": "PRAGUE INTL AIRPORT",
                "City": "PRAGUE",
                "Country": "CZ",
                "Attribute": {}
            }, {
                "Distance": 46.21,
                "Latitude": 50.096947,
                "Longitude": 14.458333,
                "Name": "PRGC01 PRAHA DT HOTEL HILTON",
                "Id": "SXPRGC001",
                "Street": "PROBREZNI 1",
                "Zip": "18600",
                "City": "PRAHA",
                "State": "PRG",
                "Country": "CZ",
                "Attribute": {}
            }, {
                "Distance": 46.52,
                "Latitude": 50.079079,
                "Longitude": 14.43322,
                "Name": "PRAGUE AIRPORT",
                "Id": "SXPRGPRG",
                "Street": "AIRPORT RUZYNE",
                "City": "PRAG",
                "Country": "CZ",
                "Attribute": {}
            }, {
                "Distance": 46.52,
                "Latitude": 50.079079,
                "Longitude": 14.43322,
                "Name": "PRAGUE AIRPORT",
                "Id": "ZAPRGPRG",
                "Street": "AIRPORT RUZYNE",
                "City": "PRAG",
                "Country": "CZ",
                "Attribute": {}
            }, {
                "Distance": 46.63,
                "Latitude": 50.08365,
                "Longitude": 14.434544,
                "Name": "PRAGUE MAIN TRAIN STATION",
                "Id": "SXPRGX001",
                "Street": "WILSONOVA 300 8",
                "Zip": "120 00",
                "City": "PRAHA 2",
                "Country": "CZ",
                "Attribute": {}
            }, {
                "Distance": 46.83,
                "Latitude": 50.07643,
                "Longitude": 14.42287,
                "Name": "PRGR002 ANTIK CITY HOTEL",
                "Id": "EPPRGR002",
                "Street": "MALA STEPANSKA 13",
                "Zip": "120 00",
                "City": "PRAGUE 2",
                "Country": "CZ",
                "Attribute": {}
            }, {
                "Distance": 46.97,
                "Latitude": 50.0925,
                "Longitude": 14.43381,
                "Name": "PRGC01 PRAGUE CAR HIRE",
                "Id": "ZIPRGC001",
                "Street": "KLIMENTSKA 46",
                "Zip": "110 00",
                "City": "110 02 PRAGUE 1",
                "Country": "CZ",
                "Attribute": {}
            }, {
                "Distance": 47.06,
                "Latitude": 50.08,
                "Longitude": 14.42,
                "Name": "PRGC60  HERTZ PRAGUE",
                "Id": "ZEPRGC060",
                "Street": "KARLOVO NAM 15",
                "City": "PRAGUE 2",
                "Country": "CS",
                "Attribute": {}
            }, {
                "Distance": 47.11,
                "Latitude": 50.088062,
                "Longitude": 14.426095,
                "Name": "DVORAK RENT A CAR NU CAR RNTLS",
                "Id": "NUPRGPRG",
                "Street": "REVOLUCNI 25  11000 PRAGUE 1",
                "Zip": "11000",
                "City": "PRAGEU",
                "Country": "CZ",
                "Attribute": {}
            }, {
                "Distance": 47.43,
                "Latitude": 50.090433,
                "Longitude": 14.419749,
                "Name": "PRGC001 PRAGUE",
                "Id": "EPPRGC001",
                "Street": "ELISKY KRASNOHORSKE 9",
                "Zip": "110 00",
                "City": "PRAGUE 1",
                "Country": "CZ",
                "Attribute": {}
            }, {
                "Distance": 47.53,
                "Latitude": 50.0915,
                "Longitude": 14.4181,
                "Name": "PRGC01 PRAGUE CZECH REPUBLIC",
                "Id": "ZDPRGC001",
                "Street": "CURIEOVYCH 5",
                "Zip": "110 00",
                "City": "PRAGUE",
                "Country": "CZ",
                "Attribute": {}
            }, {
                "Distance": 48.33,
                "Latitude": 50.071659,
                "Longitude": 14.380259,
                "Name": "PRGC71 PRAGUE",
                "Id": "ALPRGC071",
                "Street": "ZA OPRAVNOUO 1",
                "Zip": "15000",
                "City": "PRAGUE 5",
                "Country": "CZ",
                "Attribute": {}
            }, {
                "Distance": 48.33,
                "Latitude": 50.071659,
                "Longitude": 14.380259,
                "Name": "PRGC01  PRAGUE DOWNTOWN",
                "Id": "ZLPRGC001",
                "Street": "ZA OPRAVNOUO 1",
                "Zip": "15000",
                "City": "PRAGUE 5",
                "Country": "CZ",
                "Attribute": {}
            }, {
                "Distance": 48.93,
                "Latitude": 50.09993,
                "Longitude": 14.38922,
                "Name": "PRGC65  PRAGUE",
                "Id": "ZEPRGC065",
                "Street": "EVROPSKA 15",
                "Zip": "160 00",
                "City": "PRAGUE",
                "Country": "CZ",
                "Attribute": {}
            }, {
                "Distance": 49.49,
                "Latitude": 50.109192,
                "Longitude": 14.383185,
                "Name": "PRGPRG  PRAGUE AIRPORT",
                "Id": "ZLPRGPRG",
                "Street": "PRAGUE AIRPORT",
                "Zip": "16000",
                "City": "PRAGUE 6",
                "Country": "CZ",
                "Attribute": {}
            }, {
                "Distance": 49.49,
                "Latitude": 50.109192,
                "Longitude": 14.383185,
                "Name": "PRAGUE AIRPORT",
                "Id": "ZDPRGPRG",
                "Street": "RUZYNE",
                "Zip": "16000",
                "City": "PRAGUE",
                "Country": "CZ",
                "Attribute": {}
            }, {
                "Distance": 49.49,
                "Latitude": 50.109192,
                "Longitude": 14.383185,
                "Name": "PRAGUE INT AIRPORT PRGPRG",
                "Id": "ALPRGPRG",
                "Street": "RUZYNE",
                "Zip": "16000",
                "City": "PRAGUE 6",
                "Country": "CZ",
                "Attribute": {}
            }, {
                "Distance": 53.71,
                "Latitude": 50.1013,
                "Longitude": 14.26731,
                "Name": "PRAGUE AIRPORT",
                "Id": "EPPRGPRG",
                "Street": "AIRPORT TERMINAL RUZYNE",
                "Zip": "16000",
                "City": "PRAGUE",
                "Country": "CZ",
                "Attribute": {}
            }, {
                "Distance": 53.96,
                "Latitude": 50.1,
                "Longitude": 14.26,
                "Name": "RUZYNE AIRPORT",
                "Id": "ZEPRGPRG",
                "Street": "PRAGUE AIRPORT",
                "Zip": "16008",
                "City": "PRAGUE",
                "Country": "CZ",
                "Attribute": {}
            }, {
                "Distance": 53.99,
                "Latitude": 50.10087,
                "Longitude": 14.26,
                "Name": "PRG  PRAGUE AIRPORT CZECH REP",
                "Id": "ZTPRGPRG",
                "Street": "TERMINAL 1  PARKING C",
                "Zip": "11000",
                "City": "PRAGUE",
                "Country": "CZ",
                "Attribute": {}
            }, {
                "Distance": 53.99,
                "Latitude": 50.10087,
                "Longitude": 14.26,
                "Name": "PRG  PRAGUE AIRPORT CZECH REP",
                "Id": "ZRPRGPRG",
                "Street": "TERMINAL 1  PARKING C",
                "Zip": "11000",
                "City": "PRAGUE",
                "Country": "CZ",
                "Attribute": {}
            }, {
                "Distance": 63.69,
                "Latitude": 49.0026,
                "Longitude": 14.48306,
                "Name": "PRGS01 CESCE BUDEJOVICE BOSCH",
                "Id": "SXPRGS001",
                "Street": "NEMANICKA STREET 3",
                "Zip": "370 10",
                "City": "CESCE BUDEJOVICE",
                "Country": "CZ",
                "Attribute": {}
            }, {
                "Distance": 65.2,
                "Latitude": 48.9833,
                "Longitude": 14.4666,
                "Name": "CESKE BUDEJOVICE",
                "Id": "EPPRGS004",
                "Street": "REKREA",
                "Zip": "37001",
                "City": "CESKE BUDEJOVICE",
                "Country": "CZ",
                "Attribute": {}
            }, {
                "Distance": 67.79,
                "Latitude": 49.201492,
                "Longitude": 16.598742,
                "Name": "DVORAK RENT A CAR  NU CAR RNTL",
                "Id": "NUBRQC001",
                "Street": "BENESOVA 18 20 BRNO 60200",
                "Zip": "60200",
                "City": "BRNO",
                "Country": "CZ",
                "Attribute": {}
            }, {
                "Distance": 67.8,
                "Latitude": 49.18388,
                "Longitude": 16.58072,
                "Name": "BRQR001 BRNO HOLIDAY INN",
                "Id": "EPBRQR001",
                "Street": "KRIZKOVSKEHO 20",
                "Zip": "603 00",
                "City": "BRNO",
                "Country": "CZ",
                "Attribute": {}
            }, {
                "Distance": 67.91,
                "Latitude": 49.19,
                "Longitude": 16.59,
                "Name": "HERTZ BRNO",
                "Id": "ZEBRQBRQ",
                "Street": "BRNO TURANY AIRPORT",
                "Zip": "627 00",
                "City": "BRNO",
                "Country": "CZ",
                "Attribute": {}
            }, {
                "Distance": 68.26,
                "Latitude": 49.19484,
                "Longitude": 16.60445,
                "Name": "BRQC01 BRNO  BEST WESTERN HOTE",
                "Id": "ZIBRQC001",
                "Street": "HUSOVA 16",
                "Zip": "602 00",
                "City": "659 21 BRNO",
                "Country": "CZ",
                "Attribute": {}
            }, {
                "Distance": 68.33,
                "Latitude": 49.18944,
                "Longitude": 16.600629,
                "Name": "BRQC60  MILLENIUM CENTER",
                "Id": "ZEBRQC060",
                "Street": "HYBESOVA STR 42",
                "Zip": "602 00",
                "City": "BRNO",
                "Country": "CZ",
                "Attribute": {}
            }, {
                "Distance": 69.15,
                "Latitude": 49.2,
                "Longitude": 16.6333,
                "Name": "BRQC01 BRNO DOWNTOWN",
                "Id": "SXBRQC001",
                "Street": "BELOHORSKA 46",
                "Zip": "63600",
                "City": "BRNO",
                "State": "BRQ",
                "Country": "CZ",
                "Attribute": {}
            }, {
                "Distance": 69.15,
                "Latitude": 49.2,
                "Longitude": 16.6333,
                "Name": "ADVANTAGE GRAND HOTEL BRNO",
                "Id": "ADBRQBRQ",
                "Street": "18 20 BENESOVA",
                "City": "BRNO",
                "Country": "CZ",
                "Attribute": {}
            }, {
                "Distance": 71.92,
                "Latitude": 49.1773,
                "Longitude": 16.6839,
                "Name": "BRQBRQ  BRNO AIRPORT",
                "Id": "ALBRQBRQ",
                "Street": "LETISTE BRNO TURANY",
                "Zip": "62700",
                "City": "BRNO",
                "Country": "CZ",
                "Attribute": {}
            }, {
                "Distance": 71.92,
                "Latitude": 49.177265,
                "Longitude": 16.683937,
                "Name": "BRQT01 BRNO AIRPORT",
                "Id": "SXBRQBRQ",
                "Street": "LETISTE BRNO TURANY",
                "Zip": "62700",
                "City": "BRNO",
                "State": "BRQ",
                "Country": "CZ",
                "Attribute": {}
            }, {
                "Distance": 71.92,
                "Latitude": 49.177265,
                "Longitude": 16.683937,
                "Name": "BRNO AIRPORT",
                "Id": "EPBRQBRQ",
                "Street": "BRNO TURANY AIRPORT",
                "Zip": "62700",
                "City": "BRNO",
                "Country": "CZ",
                "Attribute": {}
            }, {
                "Distance": 71.92,
                "Latitude": 49.177265,
                "Longitude": 16.683937,
                "Name": "BRQBRQ  BRNO AIRPORT",
                "Id": "ZLBRQBRQ",
                "Street": "LETISTE BRNO TURANY",
                "Zip": "62700",
                "City": "BRNO",
                "Country": "CZ",
                "Attribute": {}
            }, {
                "Distance": 71.92,
                "Latitude": 49.177265,
                "Longitude": 16.683937,
                "Name": "BRNO TURANY AIRPORT",
                "Id": "ZDBRQBRQ",
                "Street": "BRNO TURANY AIRPORT",
                "Zip": "62700",
                "City": "BRNO",
                "Country": "CZ",
                "Attribute": {}
            }, {
                "Distance": 72.37,
                "Latitude": 50.77,
                "Longitude": 15.05,
                "Name": "PRGN61  LIBEREC",
                "Id": "ZEPRGN061",
                "Street": "NA FRANTISKU 106 4",
                "Zip": "16010",
                "City": "LIBEREC",
                "Country": "FR",
                "Attribute": {}
            }, {
                "Distance": 73.45,
                "Latitude": 50.779186,
                "Longitude": 14.994814,
                "Name": "PRGN002 LIBEREC",
                "Id": "EPPRGN002",
                "Street": "REKREA TRAVEL AGENCY",
                "Zip": "46001",
                "City": "LIBEREC",
                "Country": "CZ",
                "Attribute": {}
            }, {
                "Distance": 83.21,
                "Latitude": 50.89391,
                "Longitude": 14.80263,
                "Name": "ZITC01 ZITTAU CAR HIRE",
                "Id": "ZIZITC001",
                "Street": "THEODOR KOERNER ALLEE 2",
                "Zip": "02763",
                "City": "ZITTAU",
                "Country": "DE",
                "Attribute": {}
            }, {
                "Distance": 86.18,
                "Latitude": 49.59243,
                "Longitude": 17.249041,
                "Name": "OLOR001 OLOMOUC",
                "Id": "EPOLOR001",
                "Street": "BUSINESS HOTEL ALLEY W INVEST A S",
                "City": "OLOMOUC",
                "Country": "CZ",
                "Attribute": {}
            }, {
                "Distance": 86.45,
                "Latitude": 50.661453,
                "Longitude": 14.015274,
                "Name": "PRGN001 USTI NAD LABEM HOTEL V",
                "Id": "EPPRGN001",
                "Street": "HOTEL VLADIMIR",
                "Zip": "40001",
                "City": "USTI NAD LABEM",
                "Country": "CZ",
                "Attribute": {}
            }, {
                "Distance": 87.2,
                "Latitude": 49.74558,
                "Longitude": 13.38227,
                "Name": "PRGW002 PLZEN HOTEL U ZVONU",
                "Id": "EPPRGW002",
                "Street": "PRAZSKA STREET 27",
                "Zip": "301 00",
                "City": "PLZEN",
                "Country": "CZ",
                "Attribute": {}
            }, {
                "Distance": 88.4,
                "Latitude": 49.77505,
                "Longitude": 13.35551,
                "Name": "PZEC01 AVIS PLZEN",
                "Id": "ZIPZEC001",
                "Street": "STUDENTSKA 75",
                "Zip": "323 00",
                "City": "301 02 PLZEN",
                "Country": "CZ",
                "Attribute": {}
            }, {
                "Distance": 98.48,
                "Latitude": 51.146166,
                "Longitude": 14.983846,
                "Name": "ZGEC01 GOERLITZ CENTRE",
                "Id": "SXZGEC001",
                "Street": "BAHNHOFSSTRASSE 74",
                "Zip": "02826",
                "City": "GORLITZ",
                "Country": "DE",
                "Attribute": {}
            },{
                "Distance": 0.0,
                "Latitude": 56.0324,
                "Longitude": 9.3172,
                "Name": "FAEE60  HERTZ FAROE ISLAND",
                "Id": "ZEFAEE060",
                "Street": "HOYDALSVEGUR 17",
                "City": "FAROE ISLAND",
                "Country": "DK",
                "Attribute": {}
            }, {
                "Distance": 11.99,
                "Latitude": 56.13,
                "Longitude": 9.06,
                "Name": "XAKC60  HERNING",
                "Id": "ZEXAKC060",
                "Street": "TEGLVAENGET 23",
                "Zip": "7400",
                "City": "HERNING",
                "Country": "DK",
                "Attribute": {}
            }, {
                "Distance": 12.09,
                "Latitude": 56.1612,
                "Longitude": 9.5298,
                "Name": "SILKEBORG",
                "Id": "EPBLLN001",
                "Street": "NDR RINGVEJ 8",
                "Zip": "8600",
                "City": "SILKEBORG",
                "Country": "DK",
                "Attribute": {}
            }, {
                "Distance": 12.1,
                "Latitude": 56.16122,
                "Longitude": 9.52988,
                "Name": "XAHC01  SILKEBORG",
                "Id": "ZLXAHC001",
                "Street": "NDR RINGVEJ 8",
                "Zip": "8600",
                "City": "SILKEBORG",
                "Country": "DK",
                "Attribute": {}
            }, {
                "Distance": 14.18,
                "Latitude": 56.188701,
                "Longitude": 9.55599,
                "Name": "XAHC01 SILKEBORG CAR HIRE",
                "Id": "ZIXAHC001",
                "Street": "BREDHOEJVEJ 5",
                "Zip": "8600",
                "City": "SILKEBORG",
                "Country": "DK",
                "Attribute": {}
            }, {
                "Distance": 14.51,
                "Latitude": 56.120853,
                "Longitude": 8.975864,
                "Name": "ZRYC01  HERNING",
                "Id": "ZLZRYC001",
                "Street": "HYLDEVAENGET 2 10",
                "Zip": "7400",
                "City": "HERNING",
                "Country": "DK",
                "Attribute": {}
            }, {
                "Distance": 20.66,
                "Latitude": 56.310621,
                "Longitude": 9.120542,
                "Name": "KARUP AIRPORT",
                "Id": "SXKRPKRP",
                "Street": "N O  HANSENS VEJ 4",
                "Zip": "7470",
                "City": "KARUP",
                "Country": "DK",
                "Attribute": {}
            }, {
                "Distance": 21.1,
                "Latitude": 55.740556,
                "Longitude": 9.157215,
                "Name": "BLL  BILLUND AIRPORT DENMARK",
                "Id": "ZTBLLBLL",
                "Street": "BILLUND AIRPORT MAIN TERMINAL",
                "Zip": "7190",
                "City": "BILLUND",
                "Country": "DK",
                "Attribute": {}
            }, {
                "Distance": 21.1,
                "Latitude": 55.740556,
                "Longitude": 9.157215,
                "Name": "BLL  BILLUND AIRPORT DENMARK",
                "Id": "ZRBLLBLL",
                "Street": "BILLUND AIRPORT MAIN TERMINAL",
                "Zip": "7190",
                "City": "BILLUND",
                "Country": "DK",
                "Attribute": {}
            }, {
                "Distance": 21.18,
                "Latitude": 56.325237,
                "Longitude": 9.154106,
                "Name": "KARUP AIRPORT",
                "Id": "EPKRPKRP",
                "Street": "AIRPORT TERMINAL",
                "Zip": "7470",
                "City": "KARUP",
                "Country": "DK",
                "Attribute": {}
            }, {
                "Distance": 21.18,
                "Latitude": 56.325237,
                "Longitude": 9.154106,
                "Name": "KRP KARUP AIRPORT",
                "Id": "ZIKRPKRP",
                "Street": "N O  HANSENS VEJ 4",
                "Zip": "7470",
                "City": "KARUP",
                "Country": "DK",
                "Attribute": {}
            }, {
                "Distance": 21.28,
                "Latitude": 55.73849,
                "Longitude": 9.15373,
                "Name": "BILLUND AIRPORT",
                "Id": "SXBLLBLL",
                "Street": "ARRIVAL HALL",
                "Zip": "7190",
                "City": "BILLUND",
                "Country": "DK",
                "Attribute": {}
            }, {
                "Distance": 21.41,
                "Latitude": 56.32,
                "Longitude": 9.11,
                "Name": "KARUP AIRPORT",
                "Id": "ZEKRPKRP",
                "Street": "HESSELLUNDVEJ 9",
                "Zip": "7470",
                "City": "KARUP",
                "Country": "DK",
                "Attribute": {}
            }, {
                "Distance": 22.09,
                "Latitude": 55.736202,
                "Longitude": 9.102979,
                "Name": "BILLUND AIRPORT",
                "Id": "EPBLLBLL",
                "Street": "AIRPORT TERMINAL",
                "Zip": "7190",
                "City": "BILLUND",
                "Country": "DK",
                "Attribute": {}
            }, {
                "Distance": 22.09,
                "Latitude": 55.736202,
                "Longitude": 9.102979,
                "Name": "BLL BILLUND AIRPORT",
                "Id": "ZIBLLBLL",
                "Street": "LUFTHAVNSVEJ 3",
                "Zip": "7190",
                "City": "BILLUND",
                "Country": "DK",
                "Attribute": {}
            }, {
                "Distance": 22.23,
                "Latitude": 55.731609,
                "Longitude": 9.11382,
                "Name": "BILLUND DENMARK AIRPORT",
                "Id": "ZDBLLBLL",
                "Street": "ANKOMSTHALLEN",
                "City": "BILLUND",
                "Country": "DK",
                "Attribute": {}
            }, {
                "Distance": 22.39,
                "Latitude": 55.73,
                "Longitude": 9.11,
                "Name": "HERTZ BILLUND",
                "Id": "ZEBLLBLL",
                "Street": "BILLUND AIRPORT",
                "Zip": "7180",
                "City": "BILLUND",
                "Country": "DK",
                "Attribute": {}
            }, {
                "Distance": 23.54,
                "Latitude": 55.85725,
                "Longitude": 9.83894,
                "Name": "ODEN001 HORSENS",
                "Id": "EPODEN001",
                "Street": "SOENDERBROGADE 44",
                "Zip": "8700",
                "City": "HORSENS",
                "Country": "DK",
                "Attribute": {}
            }, {
                "Distance": 23.54,
                "Latitude": 55.85725,
                "Longitude": 9.83894,
                "Name": "ZILC01  HORSENS",
                "Id": "ZLZILC001",
                "Street": "SOENDERBROGADE 44",
                "Zip": "8700",
                "City": "HORSENS",
                "Country": "DK",
                "Attribute": {}
            }, {
                "Distance": 23.74,
                "Latitude": 55.706417,
                "Longitude": 9.510933,
                "Name": "VEJC65 HERTZ VEJLE",
                "Id": "ZEVEJC065",
                "Street": "LOEVERSYSSELVEJ 9",
                "Zip": "7100",
                "City": "VEJLE",
                "Country": "DK",
                "Attribute": {}
            }, {
                "Distance": 23.74,
                "Latitude": 55.706417,
                "Longitude": 9.510933,
                "Name": "BLLBLL  BILLUND AIRPORT",
                "Id": "ALBLLBLL",
                "Street": "BILLUND AIRPORT",
                "Zip": "7100",
                "City": "BILLUND",
                "Country": "DK",
                "Attribute": {}
            }, {
                "Distance": 23.74,
                "Latitude": 55.706417,
                "Longitude": 9.510933,
                "Name": "BLLBLL  BILLUND AIRPORT",
                "Id": "ZLBLLBLL",
                "Street": "BILLUND AIRPORT",
                "Zip": "7100",
                "City": "BILLUND",
                "Country": "DK",
                "Attribute": {}
            }, {
                "Distance": 23.86,
                "Latitude": 55.844,
                "Longitude": 9.834,
                "Name": "AARW60 HERTZ HORSENS",
                "Id": "ZEAARW060",
                "Street": "ORMHOEJGAARDVEJ 2",
                "City": "HORSENS",
                "Country": "DK",
                "Attribute": {}
            }, {
                "Distance": 23.89,
                "Latitude": 55.709188,
                "Longitude": 9.535903,
                "Name": "XVXC60 VEJLE",
                "Id": "ZEXVXC060",
                "Street": "LOEVERSYSSELVEJ 9",
                "Zip": "7100",
                "City": "VEJLE",
                "Country": "DK",
                "Attribute": {}
            }, {
                "Distance": 23.94,
                "Latitude": 55.7674,
                "Longitude": 8.919,
                "Name": "BLLW60  HERTZ GRINDSTED",
                "Id": "ZEBLLW060",
                "Street": "FALLEDVEJ 13",
                "Zip": "7200",
                "City": "GRINDSTED",
                "Country": "DK",
                "Attribute": {}
            }, {
                "Distance": 24.31,
                "Latitude": 55.70429,
                "Longitude": 9.54346,
                "Name": "XVXC001 VEJLE",
                "Id": "EPXVXC001",
                "Street": "TOLDBODVEJ 13",
                "Zip": "7100",
                "City": "VEJLE",
                "Country": "DK",
                "Attribute": {}
            }, {
                "Distance": 24.31,
                "Latitude": 55.70429,
                "Longitude": 9.54358,
                "Name": "XVXC01  VEJLE",
                "Id": "ZLXVXC001",
                "Street": "SJAELLANDSGADE 44",
                "Zip": "7100",
                "City": "VEJLE",
                "Country": "DK",
                "Attribute": {}
            }, {
                "Distance": 26.79,
                "Latitude": 56.135,
                "Longitude": 8.647,
                "Name": "AARW001 HERNING",
                "Id": "EPAARW001",
                "Street": "HYDEVAENGET 2 10",
                "Zip": "7400",
                "City": "HERNING",
                "Country": "DK",
                "Attribute": {}
            }, {
                "Distance": 29.69,
                "Latitude": 56.459802,
                "Longitude": 9.398031,
                "Name": "ZGXC01 VIBORG",
                "Id": "SXZGXC001",
                "Street": "FARVERVEJ 1  ST  TV",
                "Zip": "8800",
                "City": "VIBORG",
                "Country": "DK",
                "Attribute": {}
            }, {
                "Distance": 32.84,
                "Latitude": 56.1125,
                "Longitude": 10.15675,
                "Name": "AARC62  AARHUS DOWNTOWN",
                "Id": "ZEAARC062",
                "Street": "CHRISTIAN XS VEJ 203",
                "Zip": "8270",
                "City": "AARHUS",
                "Country": "DK",
                "Attribute": {}
            }, {
                "Distance": 34.84,
                "Latitude": 55.571077,
                "Longitude": 9.679627,
                "Name": "FREDERICIA CRUISE PORT",
                "Id": "SXZBJC002",
                "Street": "KULSTRAEDE",
                "Zip": "7000",
                "City": "FREDERICIA",
                "Country": "DK",
                "Attribute": {}
            }, {
                "Distance": 34.91,
                "Latitude": 56.16833,
                "Longitude": 10.18983,
                "Name": "AARX01 AARHUS N CAR HIRE",
                "Id": "ZIAARX001",
                "Street": "JENS BAGGESENSVEJ 27",
                "Zip": "8200",
                "City": "AARHUS N",
                "Country": "DK",
                "Attribute": {}
            }, {
                "Distance": 35.16,
                "Latitude": 55.53,
                "Longitude": 9.46,
                "Name": "BLLS64 HERTZ KOLDING",
                "Id": "ZEBLLS064",
                "Street": "TRIANGLEN 4",
                "Zip": "6000",
                "City": "KOLDING",
                "Country": "DK",
                "Attribute": {}
            }, {
                "Distance": 35.2,
                "Latitude": 56.153,
                "Longitude": 10.20452,
                "Name": "HERTZ AARHUS",
                "Id": "ZEAARAAR",
                "Street": "AARHUS TIRSTRUP AIRPORT",
                "City": "AARHUS",
                "Country": "DK",
                "Attribute": {}
            }, {
                "Distance": 35.32,
                "Latitude": 56.153856,
                "Longitude": 10.207377,
                "Name": "AARHUS CITY CENTER",
                "Id": "SXAARC004",
                "Street": "SONDER ALLE 32",
                "Zip": "8000",
                "City": "AARHUS",
                "Country": "DK",
                "Attribute": {}
            }, {
                "Distance": 35.33,
                "Latitude": 56.1524,
                "Longitude": 10.2084,
                "Name": "AARC001 AARHUS",
                "Id": "EPAARC001",
                "Street": "SONDER ALLE 35",
                "Zip": "8000",
                "City": "AARHUS",
                "Country": "DK",
                "Attribute": {}
            }, {
                "Distance": 35.4,
                "Latitude": 56.15202,
                "Longitude": 10.21037,
                "Name": "AARC01  AARHUS",
                "Id": "ZLAARC001",
                "Street": "SOENDER ALLE 35",
                "Zip": "8000",
                "City": "AARHUS",
                "Country": "DK",
                "Attribute": {}
            }, {
                "Distance": 36.45,
                "Latitude": 55.559,
                "Longitude": 9.7314,
                "Name": "BLLS65 HERTZ FREDERICIA",
                "Id": "ZEBLLS065",
                "Street": "STRADVEJEN 220",
                "Zip": "7000",
                "City": "FREDERICIA",
                "Country": "DK",
                "Attribute": {}
            }, {
                "Distance": 36.77,
                "Latitude": 56.541,
                "Longitude": 9.035,
                "Name": "KRPN001 SKIVE",
                "Id": "EPKRPN001",
                "Street": "SONDRE BOULEVARD 4 A",
                "Zip": "7800",
                "City": "SKIVE",
                "Country": "DK",
                "Attribute": {}
            }, {
                "Distance": 37.12,
                "Latitude": 55.501,
                "Longitude": 9.457,
                "Name": "EBJE001 KOLDING",
                "Id": "EPEBJE001",
                "Street": "VEJLEVEJ 79 81",
                "Zip": "6000",
                "City": "KOLDING",
                "Country": "DK",
                "Attribute": {}
            }, {
                "Distance": 37.14,
                "Latitude": 55.50065,
                "Longitude": 9.45751,
                "Name": "ZBTC01  KOLDING",
                "Id": "ZLZBTC001",
                "Street": "VEJLEVEJ 79 81",
                "Zip": "6000",
                "City": "KOLDING",
                "Country": "DK",
                "Attribute": {}
            }, {
                "Distance": 37.61,
                "Latitude": 55.536357,
                "Longitude": 9.715474,
                "Name": "FREDERICIA",
                "Id": "SXZBJC001",
                "Street": "GL  LANDEVEJ 61",
                "Zip": "7000",
                "City": "FREDERICIA",
                "Country": "DK",
                "Attribute": {}
            }, {
                "Distance": 37.65,
                "Latitude": 55.49652,
                "Longitude": 9.4919,
                "Name": "BLLE40 KOLDING CAR HIRE",
                "Id": "ZIBLLE040",
                "Street": "NDR RINGVEJ 118",
                "Zip": "6000",
                "City": "KOLDING",
                "Country": "DK",
                "Attribute": {}
            }, {
                "Distance": 38.51,
                "Latitude": 56.20751,
                "Longitude": 10.2665,
                "Name": "AARS01 EGAA",
                "Id": "SXAARS001",
                "Street": "OESSELBJERGVEJ 25",
                "Zip": "8250",
                "City": "EGAA",
                "Country": "DK",
                "Attribute": {}
            }, {
                "Distance": 39.74,
                "Latitude": 56.438,
                "Longitude": 10.051,
                "Name": "AARN65 HERTZ RANDERS",
                "Id": "ZEAARN065",
                "Street": "ARHUSVEJ 115",
                "City": "RANDERS",
                "Country": "DK",
                "Attribute": {}
            }, {
                "Distance": 39.89,
                "Latitude": 55.661312,
                "Longitude": 8.529481,
                "Name": "SGDC01 SONDERBORG",
                "Id": "SXSGDC001",
                "Street": "VIGAARDEN 3",
                "Zip": "6800",
                "City": "SONDERBORG",
                "Country": "DK",
                "Attribute": {}
            }, {
                "Distance": 40.37,
                "Latitude": 56.45398,
                "Longitude": 10.04523,
                "Name": "ZIRC001 RANDERS",
                "Id": "EPZIRC001",
                "Street": "GRENAAVEJ 20",
                "Zip": "8960",
                "City": "RANDERS",
                "Country": "DK",
                "Attribute": {}
            }, {
                "Distance": 40.37,
                "Latitude": 56.45398,
                "Longitude": 10.04523,
                "Name": "ZIRC01  RANDERS",
                "Id": "ZLZIRC001",
                "Street": "GRENAAVEJ 20",
                "Zip": "8960",
                "City": "RANDERS",
                "Country": "DK",
                "Attribute": {}
            }, {
                "Distance": 40.38,
                "Latitude": 56.45358,
                "Longitude": 10.04658,
                "Name": "AALS60 RANDERS CAR HIRE",
                "Id": "ZIAALS060",
                "Street": "GRENAAVEJ 11",
                "Zip": "8960",
                "City": "RANDERS",
                "Country": "DK",
                "Attribute": {}
            }, {
                "Distance": 43.2,
                "Latitude": 55.6195,
                "Longitude": 8.4813,
                "Name": "ESBN60 HERTZ VARDE",
                "Id": "ZEESBN060",
                "Street": "TORVEGADE 10",
                "Zip": "6800",
                "City": "VARDE",
                "Country": "DK",
                "Attribute": {}
            },{
                "Distance": 0.0,
                "Latitude": 51.090614,
                "Longitude": 10.382207,
                "Name": "GZMR001 GOZO",
                "Id": "EPGZMR001",
                "Street": "XLENDI TOURIST SERVICES",
                "City": "XLENDI BAY",
                "Country": "DE",
                "Attribute": {}
            }, {
                "Distance": 0.0,
                "Latitude": 51.090614,
                "Longitude": 10.382207,
                "Name": "AGBN01 DILLINGEN DONAU",
                "Id": "ZDAGBN001",
                "Street": "DONAUWOERTHER STRASSE 22",
                "City": "DILLINGEN DONAU",
                "Country": "DE",
                "Attribute": {}
            }, {
                "Distance": 0.0,
                "Latitude": 51.0906,
                "Longitude": 10.3822,
                "Name": "RIS ORANGIS",
                "Id": "SXPARS024",
                "Street": "30 RUE JOHNSTONE RECKITT",
                "Zip": "91130",
                "City": "RIS ORANGIS",
                "State": "PAR",
                "Country": "DE",
                "Attribute": {}
            }, {
                "Distance": 0.0,
                "Latitude": 51.0906,
                "Longitude": 10.3822,
                "Name": "ZAGREB HOTEL FOUR POINTS",
                "Id": "SXZAGC001",
                "Street": "TRG SPORTOVA 9",
                "Zip": "10000",
                "City": "ZAGREB",
                "State": "ZAG",
                "Country": "DE",
                "Attribute": {}
            }, {
                "Distance": 0.0,
                "Latitude": 51.0906,
                "Longitude": 10.3822,
                "Name": "MOENCHENGL AIRPORT",
                "Id": "ZIMGLMGL",
                "Street": "MOENCHENGL",
                "City": "MOENCHENGL",
                "Country": "DE",
                "Attribute": {}
            }, {
                "Distance": 0.0,
                "Latitude": 51.0906,
                "Longitude": 10.3822,
                "Name": "XCSC01  DARMSTADT",
                "Id": "ZLZCSC001",
                "Street": "XRAEFENHAUESER STR 91",
                "City": "XARMSTADT",
                "Country": "DE",
                "Attribute": {}
            }, {
                "Distance": 0.0,
                "Latitude": 51.0906,
                "Longitude": 10.3822,
                "Name": "BASEL BADISCHER RRS",
                "Id": "EPQFBX050",
                "Street": "DB TRAVEL CENTER",
                "Zip": "4016",
                "City": "BASEL BADISCHER",
                "Country": "DE",
                "Attribute": {}
            }, {
                "Distance": 1.86,
                "Latitude": 51.08342,
                "Longitude": 10.423447,
                "Name": "STARZACH SCHLOSS WEITENBURG",
                "Id": "SXZQHW001",
                "Street": "HOTEL SCHLOSS WEITENBURG",
                "City": "STARZACH WEITENBURG",
                "Country": "DE",
                "Attribute": {}
            }, {
                "Distance": 8.13,
                "Latitude": 50.981019,
                "Longitude": 10.314159,
                "Name": "EIBC01 EISENACH",
                "Id": "SXEIBC001",
                "Street": "MUEHLHAEUSER STR  15",
                "Zip": "99817",
                "City": "EISENACH",
                "Country": "DE",
                "Attribute": {}
            }, {
                "Distance": 8.14,
                "Latitude": 50.97887,
                "Longitude": 10.32266,
                "Name": "EIBC01 EISENACH CAR HIRE",
                "Id": "ZIEIBC001",
                "Street": "KARL MARX STR 63",
                "Zip": "99817",
                "City": "EISENACH",
                "Country": "DE",
                "Attribute": {}
            }, {
                "Distance": 8.15,
                "Latitude": 50.975914,
                "Longitude": 10.338398,
                "Name": "ERFW869 ADVANTAGE EISENACH",
                "Id": "ADERFW869",
                "Street": "11 HELLWIG STRASSE",
                "Zip": "99817",
                "City": "EISENACH",
                "Country": "DE",
                "Attribute": {}
            }, {
                "Distance": 8.24,
                "Latitude": 50.9751,
                "Longitude": 10.3349,
                "Name": "EIBC01  EISNACH",
                "Id": "ZLEIBC001",
                "Street": "BAHNHOFSTRASSE 37",
                "Zip": "99817",
                "City": "EISNACH",
                "Country": "DE",
                "Attribute": {}
            }, {
                "Distance": 8.24,
                "Latitude": 50.975,
                "Longitude": 10.3354,
                "Name": "EIBC001 EISENACH",
                "Id": "EPEIBC001",
                "Street": "BAHNHOFSTRASSE 37",
                "Zip": "99817",
                "City": "EISENACH",
                "Country": "DE",
                "Attribute": {}
            }, {
                "Distance": 16.66,
                "Latitude": 50.9463,
                "Longitude": 10.6892,
                "Name": "ZGOC01 GOTHA",
                "Id": "ZDZGOC001",
                "Street": "HUMBOLDT STRASSE 18",
                "Zip": "99867",
                "City": "GOTHA",
                "Country": "DE",
                "Attribute": {}
            }, {
                "Distance": 17.23,
                "Latitude": 50.9615,
                "Longitude": 10.7213,
                "Name": "ZGOC60  HERTZ GOTHA",
                "Id": "ZEZGOC060",
                "Street": "KINDLEBER STRASSE 132",
                "Zip": "99869",
                "City": "GOTHA",
                "Country": "DE",
                "Attribute": {}
            }, {
                "Distance": 17.27,
                "Latitude": 51.2,
                "Longitude": 10.024,
                "Name": "ERFW60  HERTZ ESCHWEGE",
                "Id": "ZEERFW060",
                "Street": "THUERINGER STRASSE 38",
                "Zip": "37269",
                "City": "ESCHWEGE",
                "Country": "DE",
                "Attribute": {}
            }, {
                "Distance": 18.23,
                "Latitude": 50.930799,
                "Longitude": 10.715779,
                "Name": "ZGOC01 GOTHA",
                "Id": "SXZGOC001",
                "Street": "OHRDRUFER STR  42 C",
                "Zip": "99867",
                "City": "GOTHA",
                "Country": "DE",
                "Attribute": {}
            }, {
                "Distance": 18.41,
                "Latitude": 50.92973,
                "Longitude": 10.71967,
                "Name": "ZGOC01 GOTHA CAR HIRE",
                "Id": "ZIZGOC001",
                "Street": "SCHLEGELSTR 13",
                "Zip": "99867",
                "City": "GOTHA",
                "Country": "DE",
                "Attribute": {}
            }, {
                "Distance": 19.05,
                "Latitude": 50.828003,
                "Longitude": 10.248969,
                "Name": "TQ8 BAD SALZUNGEN CAR HIRE",
                "Id": "ZIEIBC002",
                "Street": "SALZUNGER STRASSE",
                "Zip": "36433",
                "City": "BAD SALZUNGEN",
                "Country": "DE",
                "Attribute": {}
            }, {
                "Distance": 26.53,
                "Latitude": 50.9738,
                "Longitude": 10.9638,
                "Name": "ERFURT AIRPORT",
                "Id": "ZEERFERF",
                "Street": "BINDERSLEBENER LANDSTRASSE 100",
                "Zip": "99092",
                "City": "ERFURT",
                "Country": "DE",
                "Attribute": {}
            }, {
                "Distance": 26.83,
                "Latitude": 51.013187,
                "Longitude": 10.987587,
                "Name": "ERFC01 ERFURT",
                "Id": "SXERFC001",
                "Street": "DEMMINER STRASSE 6A",
                "Zip": "99091",
                "City": "ERFURT",
                "Country": "DE",
                "Attribute": {}
            }, {
                "Distance": 27.03,
                "Latitude": 50.972,
                "Longitude": 10.975,
                "Name": "ERFURT AIRPORT",
                "Id": "EPERFERF",
                "Street": "BINDERSLEBENER LANDSTRASSE 100",
                "Zip": "99092",
                "City": "ERFURT",
                "Country": "FR",
                "Attribute": {}
            }, {
                "Distance": 27.45,
                "Latitude": 50.976707,
                "Longitude": 10.98745,
                "Name": "ERF ERFURT AIRPORT",
                "Id": "ZIERFERF",
                "Street": "FLUGHAFEN ERFURT",
                "Zip": "99092",
                "City": "ERFURT",
                "Country": "DE",
                "Attribute": {}
            }, {
                "Distance": 28.68,
                "Latitude": 51.01,
                "Longitude": 11.03,
                "Name": "ERFC65  ERFURT DOWNTOWN",
                "Id": "ZEERFC065",
                "Street": "AM ROTEN BERG 5",
                "Zip": "99087",
                "City": "ERFURT",
                "Country": "DE",
                "Attribute": {}
            }, {
                "Distance": 29.35,
                "Latitude": 50.9872,
                "Longitude": 11.0374,
                "Name": "ADVANTAGE ERFURT",
                "Id": "ADERFERF",
                "Street": "44 EUGEN RICHTER STRASSE",
                "Zip": "99085",
                "City": "ERFURT",
                "Country": "DE",
                "Attribute": {}
            }, {
                "Distance": 29.36,
                "Latitude": 50.97,
                "Longitude": 11.03,
                "Name": "ERFX91  ERFURT RR STN",
                "Id": "ZEERFX091",
                "Street": "WILLY BRANDT PLATZ 12",
                "Zip": "99084",
                "City": "ERFURT",
                "Country": "DE",
                "Attribute": {}
            }, {
                "Distance": 29.6,
                "Latitude": 50.973,
                "Longitude": 11.0372,
                "Name": "ERFURT HBF DB REISEZENTRUM",
                "Id": "SXERFC005",
                "Street": "WILLY BRANDT PLATZ 12",
                "Zip": "99084",
                "City": "ERFURT",
                "State": "ERF",
                "Country": "DE",
                "Attribute": {}
            }, {
                "Distance": 29.64,
                "Latitude": 50.972656,
                "Longitude": 11.038092,
                "Name": "ERFURT TRAIN STATION INTERCITY",
                "Id": "SXERFX002",
                "Street": "WILLY BRANDT PLATZ 11",
                "Zip": "99084",
                "City": "ERFURT",
                "Country": "DE",
                "Attribute": {}
            }, {
                "Distance": 29.69,
                "Latitude": 50.9738,
                "Longitude": 11.0398,
                "Name": "ERFX001 ERFURT RRS",
                "Id": "EPERFX001",
                "Street": "WILLYBRANDT PLATZ 11",
                "Zip": "99084",
                "City": "ERFURT",
                "Country": "DE",
                "Attribute": {}
            }, {
                "Distance": 29.73,
                "Latitude": 50.9744,
                "Longitude": 11.0411,
                "Name": "ERF ERFURT AIRPORT",
                "Id": "SXERFERF",
                "Street": "BINDERSLEBENER LANDSTRASSE 100",
                "Zip": "99092",
                "City": "ERFURT",
                "State": "ERF",
                "Country": "DE",
                "Attribute": {}
            }, {
                "Distance": 29.97,
                "Latitude": 50.849807,
                "Longitude": 10.955233,
                "Name": "ERFS01 ARNSTADT",
                "Id": "SXERFS001",
                "Street": "ICHTERSHAEUSER STRASSE 72",
                "Zip": "99310",
                "City": "ARNSTADT",
                "Country": "DE",
                "Attribute": {}
            }, {
                "Distance": 30.09,
                "Latitude": 50.97358,
                "Longitude": 11.04932,
                "Name": "ERFC01 ERFURT",
                "Id": "ZIERFC001",
                "Street": "WEIMARISCHE STR 37B",
                "Zip": "99099",
                "City": "ERFURT",
                "Country": "DE",
                "Attribute": {}
            }, {
                "Distance": 30.53,
                "Latitude": 50.974833,
                "Longitude": 11.060223,
                "Name": "ERFC08 ERFURT",
                "Id": "ETERFC008",
                "Street": "WEIMARISCHE STR  34A",
                "Zip": "99099",
                "City": "ERFURT",
                "Country": "DE",
                "Attribute": {}
            }, {
                "Distance": 30.59,
                "Latitude": 50.9749,
                "Longitude": 11.0618,
                "Name": "ERFURT",
                "Id": "EPERFC001",
                "Street": "WEIMARISCHE STRASSE 32A",
                "Zip": "99099",
                "City": "ERFURT",
                "Country": "DE",
                "Attribute": {}
            }, {
                "Distance": 30.63,
                "Latitude": 50.974,
                "Longitude": 11.0622,
                "Name": "ERFC01  ERFURT",
                "Id": "ZLERFC001",
                "Street": "WEIMARISCHE STRASSE 32A",
                "Zip": "99099",
                "City": "ERFURT",
                "Country": "DE",
                "Attribute": {}
            }, {
                "Distance": 32.32,
                "Latitude": 50.952149,
                "Longitude": 11.092552,
                "Name": "ERFURT HERRENBERG NTC",
                "Id": "SXERFC002",
                "Street": "AM HERRENBERG 101",
                "Zip": "99099",
                "City": "ERFURT",
                "Country": "DE",
                "Attribute": {}
            }, {
                "Distance": 32.81,
                "Latitude": 50.864567,
                "Longitude": 9.718904,
                "Name": "KSFS010 BAD HERSFELD",
                "Id": "EPKSFS010",
                "Street": "KLEINE INDUSTRIERSTR 11",
                "Zip": "36251",
                "City": "BAD HERSFELD",
                "Country": "DE",
                "Attribute": {}
            }, {
                "Distance": 32.85,
                "Latitude": 51.4879,
                "Longitude": 10.7998,
                "Name": "ERFN61  NORDHAUSEN",
                "Id": "ZEERFN061",
                "Street": "STRASSE DER EINHEIT",
                "Zip": "99734",
                "City": "NORDHAUSEN",
                "Country": "DE",
                "Attribute": {}
            }, {
                "Distance": 32.85,
                "Latitude": 50.87007,
                "Longitude": 9.71315,
                "Name": "KSFS50 BAD HERSFELD",
                "Id": "ZIKSFS050",
                "Street": "BAHNHOFSTRASSE 3",
                "Zip": "36251",
                "City": "BAD HERSFELD",
                "Country": "DE",
                "Attribute": {}
            }, {
                "Distance": 32.98,
                "Latitude": 50.814053,
                "Longitude": 10.999685,
                "Name": "QX9 ARNSTADT CAR HIRE",
                "Id": "ZIERFS020",
                "Street": "ICHTERHAEUSER STR 40",
                "Zip": "99310",
                "City": "ARNSTADT",
                "Country": "DE",
                "Attribute": {}
            }, {
                "Distance": 33.2,
                "Latitude": 51.4955,
                "Longitude": 10.7959,
                "Name": "NORDHAUSEN",
                "Id": "SXERFW002",
                "Street": "HALLESCHE STR 53A",
                "Zip": "99734",
                "City": "NORDHAUSEN",
                "State": "ERF",
                "Country": "DE",
                "Attribute": {}
            }, {
                "Distance": 33.4,
                "Latitude": 51.4953,
                "Longitude": 10.80486,
                "Name": "ERFW01 NORDHAUSEN",
                "Id": "SXERFW001",
                "Street": "HALLESCHE STR  53",
                "Zip": "99734",
                "City": "NORDHAUSEN",
                "Country": "DE",
                "Attribute": {}
            }, {
                "Distance": 33.51,
                "Latitude": 51.4947,
                "Longitude": 10.8113,
                "Name": "ERFN01  NORDHAUSEN",
                "Id": "ZLERFN001",
                "Street": "HALLESCHE STRASSE 102",
                "Zip": "99734",
                "City": "NORDHAUSEN",
                "Country": "DE",
                "Attribute": {}
            }, {
                "Distance": 34.5,
                "Latitude": 50.632732,
                "Longitude": 10.697702,
                "Name": "ZSOC01 SUHL",
                "Id": "SXZSOC001",
                "Street": "AM FROEHLICHEN MANN IM MB AH",
                "Zip": "98528",
                "City": "SUHL",
                "Country": "DE",
                "Attribute": {}
            }, {
                "Distance": 34.5,
                "Latitude": 50.63262,
                "Longitude": 10.6976,
                "Name": "ZSOC01 SUHL",
                "Id": "ZIZSOC001",
                "Street": "FROEHLICHE MANN STR 1",
                "Zip": "98528",
                "City": "SUHL",
                "Country": "DE",
                "Attribute": {}
            }, {
                "Distance": 36.52,
                "Latitude": 51.536,
                "Longitude": 9.927,
                "Name": "ZEUX001 GOETTINGEN RRS",
                "Id": "EPZEUX001",
                "Street": "BAHNHOFSVORPLATZ 3",
                "Zip": "37037",
                "City": "GOETTINGEN",
                "Country": "DE",
                "Attribute": {}
            }, {
                "Distance": 36.6,
                "Latitude": 51.534955,
                "Longitude": 9.921055,
                "Name": "ZEUC01 GOETTINGEN",
                "Id": "SXZEUC001",
                "Street": "GRONER LANDSTR  33",
                "Zip": "37081",
                "City": "GOTTINGEN",
                "Country": "DE",
                "Attribute": {}
            }, {
                "Distance": 36.6,
                "Latitude": 51.535,
                "Longitude": 9.921,
                "Name": "ZEUC001 GOETTINGEN",
                "Id": "EPZEUC001",
                "Street": "GRONER LANDSTR 27",
                "Zip": "37081",
                "City": "GOETTINGEN",
                "Country": "DE",
                "Attribute": {}
            }, {
                "Distance": 36.7,
                "Latitude": 51.13625,
                "Longitude": 9.53913,
                "Name": "KSFS30 MELSUNGEN",
                "Id": "ZIKSFS030",
                "Street": "KASSELER STR 61",
                "Zip": "34212",
                "City": "MELSUNGEN",
                "Country": "DE",
                "Attribute": {}
            }, {
                "Distance": 36.9,
                "Latitude": 51.525317,
                "Longitude": 9.885754,
                "Name": "ZEUC39 GOETTINGEN BMW",
                "Id": "ETZEUC039",
                "Street": "CO BMW NIEDERLASSUNG GOETT",
                "Zip": "37081",
                "City": "GOETTINGEN",
                "Country": "DE",
                "Attribute": {}
            },{
                "Distance": 36.99,
                "Latitude": 58.379967,
                "Longitude": 26.683718,
                "Name": "TAYC01 TARTU",
                "Id": "SXTAYC001",
                "Street": "TURU 1 313 A",
                "Zip": "51014",
                "City": "TARTU",
                "Country": "EE",
                "Attribute": {}
            }, {
                "Distance": 38.15,
                "Latitude": 58.366829,
                "Longitude": 26.70512,
                "Name": "T3U TARTU CAR HIRE",
                "Id": "ZITLLS001",
                "Street": "VALLIKRAAVI 2",
                "Zip": "32767",
                "City": "TARTU",
                "Country": "EE",
                "Attribute": {}
            }, {
                "Distance": 39.66,
                "Latitude": 58.3499,
                "Longitude": 26.7333,
                "Name": "TLLE60  HERTZ TARTU",
                "Id": "ZETLLE060",
                "Street": "JOE STREET 9A",
                "City": "TARTU",
                "Country": "EE",
                "Attribute": {}
            }, {
                "Distance": 40.11,
                "Latitude": 58.356522,
                "Longitude": 26.757412,
                "Name": "TAYC001 TARTU",
                "Id": "EPTAYC001",
                "Street": "SEPA 24 B",
                "Zip": "51013",
                "City": "TARTU",
                "Country": "EE",
                "Attribute": {}
            }, {
                "Distance": 40.11,
                "Latitude": 58.356522,
                "Longitude": 26.757412,
                "Name": "TAYC01 TARTU",
                "Id": "ZLTAYC001",
                "Street": "VOLKSWAGEN DEALER LOCAL",
                "Zip": "51013",
                "City": "TARTU",
                "Country": "EE",
                "Attribute": {}
            }, {
                "Distance": 40.2,
                "Latitude": 58.306975,
                "Longitude": 26.687272,
                "Name": "TARTU AIRPORT",
                "Id": "SXTAYTAY",
                "Street": "LENNU TN  44  REOLA KUELA",
                "Zip": "61707",
                "City": "TARTU",
                "Country": "EE",
                "Attribute": {}
            }, {
                "Distance": 52.55,
                "Latitude": 58.3867,
                "Longitude": 24.500128,
                "Name": "TLLS050 PARNU",
                "Id": "EPTLLS050",
                "Street": "VAELJA TAENAV 3",
                "Zip": "80010",
                "City": "PARNU",
                "Country": "EE",
                "Attribute": {}
            }, {
                "Distance": 52.55,
                "Latitude": 58.3867,
                "Longitude": 24.500128,
                "Name": "TLLS01 PARNU",
                "Id": "ZLTLLS001",
                "Street": "VALJA TANAV 3",
                "Zip": "80010",
                "City": "PARNU",
                "Country": "EE",
                "Attribute": {}
            },